[{"rating": "6.3", "movieid": "tt0090264", "title": "A View to a Kill", "long": "-122.4077914", "location": "Chinatown", "year": "1985", "lat": "37.7941378"}, {"rating": "6.3", "movieid": "tt0090264", "title": "A View to a Kill", "long": "-122.3910986", "location": "Burger Island (901 3rd Street, China Basin)", "year": "1985", "lat": "37.7775523"}, {"rating": "6.3", "movieid": "tt0090264", "title": "A View to a Kill", "long": "-122.422592", "location": "Van Ness Avenue", "year": "1985", "lat": "37.7913102"}, {"rating": "6.3", "movieid": "tt0090264", "title": "A View to a Kill", "long": "-122.4158057", "location": "Taylor and Jefferson Streets (Fisherman's Wharf)", "year": "1985", "lat": "37.8082428"}, {"rating": "6.3", "movieid": "tt0090264", "title": "A View to a Kill", "long": "-122.356952", "location": "City Hall", "year": "1985", "lat": "37.9137666"}, {"rating": "6.3", "movieid": "tt0090264", "title": "A View to a Kill", "long": "-122.3951684", "location": "Port of San Francisco ", "year": "1985", "lat": "37.7969874"}, {"rating": "6.3", "movieid": "tt0090264", "title": "A View to a Kill", "long": "-122.3891193", "location": "Lefty O' Doul Drawbridge/ 3rd Street Bridge (3rd Street, China Basin)", "year": "1985", "lat": "37.7659631"}, {"rating": "6.3", "movieid": "tt0090264", "title": "A View to a Kill", "long": "-122.4782551", "location": "Golden Gate Bridge", "year": "1985", "lat": "37.8199286"}, {"rating": "6.3", "movieid": "tt0090264", "title": "A View to a Kill", "long": "-122.3936442", "location": "Embarcadero Freeway", "year": "1985", "lat": "37.7472584"}, {"rating": "6.3", "movieid": "tt0090264", "title": "A View to a Kill", "long": "-122.400869", "location": "Potrero Hill", "year": "1985", "lat": "37.7604929"}, {"rating": "6.3", "movieid": "tt0090264", "title": "A View to a Kill", "long": "-122.356952", "location": "City Hall", "year": "1985", "lat": "37.9137666"}, {"rating": "4.9", "movieid": "tt0092710", "title": "Burglar", "long": "-122.4660947", "location": "California Academy of Sciences (Golden Gate Park)", "year": "1987", "lat": "37.7698646"}, {"rating": "4.9", "movieid": "tt0092710", "title": "Burglar", "long": "-122.3968332", "location": "1400 18th Street", "year": "1987", "lat": "37.7627009"}, {"rating": "4.9", "movieid": "tt0092710", "title": "Burglar", "long": "-122.4492183", "location": "1627 Haight Street", "year": "1987", "lat": "37.7697077"}, {"rating": "4.9", "movieid": "tt0092710", "title": "Burglar", "long": "-122.4194155", "location": "Green Valley Restaurant (510 Green Street Near Grant)", "year": "1987", "lat": "37.7749295"}, {"rating": "4.5", "movieid": "tt0080492", "title": "Can't Stop the Music", "long": "-122.4034569", "location": "101 Henry Adams Place", "year": "1980", "lat": "37.7681527"}, {"rating": "7", "movieid": "tt0097027", "title": "Casualties of War", "long": "-122.4147977", "location": "Mission Delores Park (Mission District) via J-Church MUNI Train", "year": "1989", "lat": "37.7598648"}, {"rating": "7.1", "movieid": "tt0083728", "title": "Chan is Missing", "long": "-122.4077914", "location": "Li Po (916 Grant Avenue at Washington, Chinatown)", "year": "1982", "lat": "37.7941378"}, {"rating": "7.1", "movieid": "tt0083728", "title": "Chan is Missing", "long": "-122.406882", "location": "Golden Dragon Restaurant (816 Washington Street at Grant)", "year": "1982", "lat": "37.795288"}, {"rating": "3.9", "movieid": "tt0082177", "title": "Chu Chu and the Philly Flash", "long": "-122.3999821", "location": "22nd and Carolina Streets (Potrero Hill)", "year": "1981", "lat": "37.7572327"}, {"rating": "3.9", "movieid": "tt0082177", "title": "Chu Chu and the Philly Flash", "long": "-122.4100354", "location": "Fairmont Hotel (950 Mason Street, Nob Hill)", "year": "1981", "lat": "37.7924958"}, {"rating": "3.9", "movieid": "tt0082177", "title": "Chu Chu and the Philly Flash", "long": "-122.3954958", "location": "Transbay Terminal (Mission Street at 1st Street)", "year": "1981", "lat": "37.7881209"}, {"rating": "8", "movieid": "tt0097099", "title": "Common Threads: Stories From the Quilt", "long": "-122.4350043", "location": "The Castro", "year": "1989", "lat": "37.7609082"}, {"rating": "5", "movieid": "tt0087096", "title": "Crackers", "long": "-122.4067663", "location": "24th Street between Mission Street and Potrero Avenue", "year": "1984", "lat": "37.7579142"}, {"rating": "5", "movieid": "tt0087096", "title": "Crackers", "long": "-122.4776446", "location": "La Rondalla (Valencia and 20th Streets)", "year": "1984", "lat": "37.7556165"}, {"rating": "", "movieid": "", "title": "Dim Sum: A Little Bit of Heart", "long": "-122.3789554", "location": "San Francisco International Airport", "year": "1985", "lat": "37.6213129"}, {"rating": "", "movieid": "", "title": "Dim Sum: A Little Bit of Heart", "long": "-122.4077914", "location": "Li Po (916 Grant Avenue at Washington, Chinatown)", "year": "1985", "lat": "37.7941378"}, {"rating": "", "movieid": "", "title": "Dim Sum: A Little Bit of Heart", "long": "-122.4077914", "location": "Chinatown", "year": "1985", "lat": "37.7941378"}, {"rating": "6.5", "movieid": "tt0097336", "title": "Fat Man and Little Boy", "long": "-122.4245247", "location": "Postcard Row (Alamo Square, Hayes Valley)", "year": "1989", "lat": "37.7759073"}, {"rating": "4.7", "movieid": "tt0087384", "title": "Hard to Hold", "long": "-122.4100354", "location": "Fairmont Hotel (950 Mason Street, Nob Hill)", "year": "1984", "lat": "37.7924958"}, {"rating": "6", "movieid": "tt0080854", "title": "Heart Beat", "long": "-122.406579", "location": "City Lights Bookstore (261 Columbus)", "year": "1980", "lat": "37.797601"}, {"rating": "6", "movieid": "tt0080854", "title": "Heart Beat", "long": "-122.4173176", "location": "San Francisco Art Institute (800 Chestnut Street)", "year": "1980", "lat": "37.8037223"}, {"rating": "6", "movieid": "tt0080854", "title": "Heart Beat", "long": "-122.4110834", "location": "Washington Square Bar & Grill (1707 Powell)", "year": "1980", "lat": "37.8003991"}, {"rating": "8.3", "movieid": "tt0097576", "title": "Indiana Jones and the Last Crusade", "long": "-122.370648", "location": "Administration Building (Treasure Island)", "year": "1989", "lat": "37.8235515"}, {"rating": "6.7", "movieid": "tt0093260", "title": "Innerspace", "long": "-122.4782551", "location": "Golden Gate Bridge", "year": "1987", "lat": "37.8199286"}, {"rating": "6.7", "movieid": "tt0093260", "title": "Innerspace", "long": "-122.4056674", "location": "Telegraph Hill", "year": "1987", "lat": "37.8013407"}, {"rating": "6.7", "movieid": "tt0093260", "title": "Innerspace", "long": "-122.4101888", "location": "Mark Hopkins Intercontinental Hotel (1 Nob Hill Circle, Nob Hill)", "year": "1987", "lat": "37.7914046"}, {"rating": "6.5", "movieid": "tt0089360", "title": "Jagged Edge", "long": "-122.4782551", "location": "Golden Gate Bridge", "year": "1985", "lat": "37.8199286"}, {"rating": "6.5", "movieid": "tt0089360", "title": "Jagged Edge", "long": "-122.356952", "location": "City Hall", "year": "1985", "lat": "37.9137666"}, {"rating": "7.4", "movieid": "tt0091323", "title": "Kamikaze Hearts", "long": "-122.4194155", "location": "Market Street Between Noe and Sanchez", "year": "1986", "lat": "37.7749295"}, {"rating": "5.4", "movieid": "tt0089569", "title": "Maxie", "long": "-122.4134177", "location": "Grace Cathedral Episcopal Church (1100 California Street)", "year": "1985", "lat": "37.7920733"}, {"rating": "5.4", "movieid": "tt0089569", "title": "Maxie", "long": "-122.4163842", "location": "Asian Art Museum (200 Larkin Street, Civic Center)", "year": "1985", "lat": "37.7802635"}, {"rating": "5.4", "movieid": "tt0089569", "title": "Maxie", "long": "-122.4245247", "location": "722 Steiner Street (Postcard Row, Alamo Square, Hayes Valley)", "year": "1985", "lat": "37.7759073"}, {"rating": "6.6", "movieid": "tt0080319", "title": "Nine to Five", "long": "-122.4194155", "location": "Albert S. Samuels Clock (856 Market Street between Powell and Stockton)", "year": "1980", "lat": "37.7749295"}, {"rating": "6.2", "movieid": "tt0095836", "title": "Patty Hearst", "long": "-122.4849869", "location": "Bank of America (38th Street at Balboa Street)", "year": "1988", "lat": "37.7762744"}, {"rating": "6.2", "movieid": "tt0095836", "title": "Patty Hearst", "long": "-122.4245247", "location": "Postcard Row (Alamo Square, Hayes Valley)", "year": "1988", "lat": "37.7759073"}, {"rating": "5.5", "movieid": "tt0091814", "title": "Quicksilver", "long": "-122.4194155", "location": "Pacific Stock Exchange", "year": "1986", "lat": "37.7749295"}, {"rating": "6.7", "movieid": "tt0081485", "title": "Serial", "long": "-122.392052", "location": "Ferry Building", "year": "1980", "lat": "37.795923"}, {"rating": "7", "movieid": "tt0084675", "title": "Shoot the Moon", "long": "-122.4100354", "location": "Fairmont Hotel (950 Mason Street, Nob Hill)", "year": "1982", "lat": "37.7924958"}, {"rating": "7.7", "movieid": "tt0084726", "title": "Star Trek II : The Wrath of Khan", "long": "-122.4835193", "location": "Golden Gate Park", "year": "1982", "lat": "37.76904"}, {"rating": "7.3", "movieid": "tt0092007", "title": "Star Trek IV: The Voyage Home", "long": "-122.4053194", "location": "Intersection of Columbus & Kearney Streets", "year": "1986", "lat": "37.7969361"}, {"rating": "7.3", "movieid": "tt0092007", "title": "Star Trek IV: The Voyage Home", "long": "-122.4782551", "location": "Golden Gate Bridge", "year": "1986", "lat": "37.8199286"}, {"rating": "7.3", "movieid": "tt0092007", "title": "Star Trek IV: The Voyage Home", "long": "-122.4063687", "location": "Bessie Charmichael Elementary School (375 Seventh Street, SOMA)", "year": "1986", "lat": "37.7762375"}, {"rating": "7.3", "movieid": "tt0092007", "title": "Star Trek IV: The Voyage Home", "long": "-122.4038353", "location": "500 Block of Pacific Avenue (Chinatown)", "year": "1986", "lat": "37.797336"}, {"rating": "7.3", "movieid": "tt0092007", "title": "Star Trek IV: The Voyage Home", "long": "-122.4129322", "location": "Intersection of Columbus & Mason Streets", "year": "1986", "lat": "37.8021652"}, {"rating": "7.3", "movieid": "tt0092007", "title": "Star Trek IV: The Voyage Home", "long": "-122.4071906", "location": "Intersection of Grant & Fresno Streets (North Beach)", "year": "1986", "lat": "37.7985059"}, {"rating": "7.3", "movieid": "tt0092007", "title": "Star Trek IV: The Voyage Home", "long": "-122.4053539", "location": "Kearny & Pacific Streets", "year": "1986", "lat": "37.7971099"}, {"rating": "7.3", "movieid": "tt0092007", "title": "Star Trek IV: The Voyage Home", "long": "-122.4391137", "location": "Marina Green, Marina District", "year": "1986", "lat": "37.8066235"}, {"rating": "7.3", "movieid": "tt0092007", "title": "Star Trek IV: The Voyage Home", "long": "-122.4103311", "location": "North Beach", "year": "1986", "lat": "37.8060532"}, {"rating": "7.3", "movieid": "tt0092007", "title": "Star Trek IV: The Voyage Home", "long": "-122.4338604", "location": "West Harbor, Marina District", "year": "1986", "lat": "37.8071508"}, {"rating": "7.3", "movieid": "tt0092007", "title": "Star Trek IV: The Voyage Home", "long": "-122.4835193", "location": "Golden Gate Park", "year": "1986", "lat": "37.76904"}, {"rating": "6.7", "movieid": "tt0083129", "title": "Street Music", "long": "-122.413863", "location": "Hamlin Hotel (385 Eddy Street)", "year": "1981", "lat": "37.78356"}, {"rating": "6.6", "movieid": "tt0086383", "title": "Sudden Impact", "long": "-122.3866351", "location": "Pier 38-40, The Embarcadero", "year": "1983", "lat": "37.7815904"}, {"rating": "6.6", "movieid": "tt0086383", "title": "Sudden Impact", "long": "-122.485139", "location": "Near Point Lobos, El Camino Del Mar ", "year": "1983", "lat": "37.787536"}, {"rating": "6.6", "movieid": "tt0086383", "title": "Sudden Impact", "long": "-122.4540461", "location": "Mt. Davidson", "year": "1983", "lat": "37.739132"}, {"rating": "6.6", "movieid": "tt0086383", "title": "Sudden Impact", "long": "-122.392425", "location": "McDonald's Restaurant (701 3rd Street, SOMA)", "year": "1983", "lat": "37.7788249"}, {"rating": "6.6", "movieid": "tt0086383", "title": "Sudden Impact", "long": "-122.4101888", "location": "Mark Hopkins Intercontinental Hotel (1 Nob Hill Circle, Nob Hill)", "year": "1983", "lat": "37.7914046"}, {"rating": "6.6", "movieid": "tt0086383", "title": "Sudden Impact", "long": "-122.4037169", "location": "Hall of Justice (850 Bryant Street)", "year": "1983", "lat": "37.775471"}, {"rating": "6.6", "movieid": "tt0086383", "title": "Sudden Impact", "long": "-122.3918603", "location": "Ferry Plaza", "year": "1983", "lat": "37.7957585"}, {"rating": "6.6", "movieid": "tt0086383", "title": "Sudden Impact", "long": "-122.4100354", "location": "Fairmont Hotel (950 Mason Street, Nob Hill)", "year": "1983", "lat": "37.7924958"}, {"rating": "6.6", "movieid": "tt0086383", "title": "Sudden Impact", "long": "-122.4176118", "location": "Civic Center Plaza", "year": "1983", "lat": "37.7794978"}, {"rating": "6.6", "movieid": "tt0086383", "title": "Sudden Impact", "long": "-122.393861", "location": "The Embarcadero/Ferry Building", "year": "1983", "lat": "37.795105"}, {"rating": "6.6", "movieid": "tt0086383", "title": "Sudden Impact", "long": "-122.4215042", "location": "Bowles Franklin Galleries (765 Beach Street, Fisherman's Wharf)", "year": "1983", "lat": "37.8063237"}, {"rating": "6.7", "movieid": "tt0080556", "title": "The Competiton", "long": "-122.4660947", "location": "California Academy of Sciences (Golden Gate Park)", "year": "1980", "lat": "37.7698646"}, {"rating": "6.7", "movieid": "tt0080556", "title": "The Competiton", "long": "-122.409821", "location": "Pier 39", "year": "1980", "lat": "37.808673"}, {"rating": "6.3", "movieid": "tt0094963", "title": "The Dead Pool", "long": "-122.489924", "location": "550 El Camino Del Mar (Seacliff)", "year": "1988", "lat": "37.787534"}, {"rating": "6.3", "movieid": "tt0094963", "title": "The Dead Pool", "long": "-122.4044861", "location": "San Francisco General Hospital Medical Center (1001 Potrero Avenue, Potrero Hill)", "year": "1988", "lat": "37.7563143"}, {"rating": "6.3", "movieid": "tt0094963", "title": "The Dead Pool", "long": "-122.4128633", "location": "1954 Mason Street (North Beach)", "year": "1988", "lat": "37.8018702"}, {"rating": "6.3", "movieid": "tt0094963", "title": "The Dead Pool", "long": "-122.4010859", "location": "20th & DeHaro Streets (Potrero Hill)", "year": "1988", "lat": "37.7597412"}, {"rating": "6.3", "movieid": "tt0094963", "title": "The Dead Pool", "long": "-122.3989281", "location": "22nd & Wisconsin Streets (Potrero Hill)", "year": "1988", "lat": "37.7573037"}, {"rating": "6.3", "movieid": "tt0094963", "title": "The Dead Pool", "long": "-122.40208", "location": "22nd Bet. Carolina & Rhode Island Streets (Potrero Hill)", "year": "1988", "lat": "37.759675"}, {"rating": "6.3", "movieid": "tt0094963", "title": "The Dead Pool", "long": "-122.4081943", "location": "New Asia Restaurant (772 Pacific Avenue at Grant)", "year": "1988", "lat": "37.7969313"}, {"rating": "6.3", "movieid": "tt0094963", "title": "The Dead Pool", "long": "-122.3895378", "location": "San Francisco Drydock (The Dogpatch)", "year": "1988", "lat": "37.7591221"}, {"rating": "6.3", "movieid": "tt0094963", "title": "The Dead Pool", "long": "-122.410084", "location": "Washington Square Park (North Beach)", "year": "1988", "lat": "37.800781"}, {"rating": "6.3", "movieid": "tt0094963", "title": "The Dead Pool", "long": "-122.4093554", "location": "One Thousand Powell Apartments (1000 Powell Street)", "year": "1988", "lat": "37.7941048"}, {"rating": "6.3", "movieid": "tt0094963", "title": "The Dead Pool", "long": "-122.4142969", "location": "The Cannery (281 Leavenworth Street, Fisherman's Wharf)", "year": "1988", "lat": "37.783631"}, {"rating": "6.3", "movieid": "tt0094963", "title": "The Dead Pool", "long": "-122.4051812", "location": "Posrtsmouth Square (Chinatown)", "year": "1988", "lat": "37.7948406"}, {"rating": "6.3", "movieid": "tt0094963", "title": "The Dead Pool", "long": "-122.4352281", "location": "Pierce St. & Golden Gate Avenue (Hayes Valley)", "year": "1988", "lat": "37.7791605"}, {"rating": "6.3", "movieid": "tt0094963", "title": "The Dead Pool", "long": "-122.4371125", "location": "Pierce & California Streets (Pacific Heights)", "year": "1988", "lat": "37.7884966"}, {"rating": "6.3", "movieid": "tt0094963", "title": "The Dead Pool", "long": "-122.3956572", "location": "Pier 3 (The Embarcadero)", "year": "1988", "lat": "37.797569"}, {"rating": "6.3", "movieid": "tt0094963", "title": "The Dead Pool", "long": "-122.405875", "location": "Nam Yuen Restaurant (740 Washington Street, Chinatown)", "year": "1988", "lat": "37.795426"}, {"rating": "6.3", "movieid": "tt0094963", "title": "The Dead Pool", "long": "-122.3895378", "location": "Mirant Energy, LLC (1301 Illinois Street, The Dogpatch)", "year": "1988", "lat": "37.7591221"}, {"rating": "6.3", "movieid": "tt0094963", "title": "The Dead Pool", "long": "-122.4367039", "location": "McAllister & Scott Streets (Hayes Valley)", "year": "1988", "lat": "37.7780094"}, {"rating": "6.3", "movieid": "tt0094963", "title": "The Dead Pool", "long": "-122.3996479", "location": "KGO-TV ABC7 TV Studios (900 Front Street, Waterfront Historic District)", "year": "1988", "lat": "37.8002504"}, {"rating": "6.3", "movieid": "tt0094963", "title": "The Dead Pool", "long": "-122.4037169", "location": "Hall of Justice (850 Bryant Street)", "year": "1988", "lat": "37.775471"}, {"rating": "6.3", "movieid": "tt0094963", "title": "The Dead Pool", "long": "-122.4672416", "location": "San Francisco National Military Cemetary (Lincoln Blvd., The Presidio, Golden Gate National Recreation Center)", "year": "1988", "lat": "37.799617"}, {"rating": "6.3", "movieid": "tt0094963", "title": "The Dead Pool", "long": "-122.4061608", "location": "Silver Restaurant (737 Washington Street, Chinatown)", "year": "1988", "lat": "37.7950706"}, {"rating": "6.3", "movieid": "tt0094963", "title": "The Dead Pool", "long": "-122.3554512", "location": "Fremont Street Exit of Bay Bridge", "year": "1988", "lat": "37.8046191"}, {"rating": "6.3", "movieid": "tt0094963", "title": "The Dead Pool", "long": "-122.3957419", "location": "Folsom & Essex Streets", "year": "1988", "lat": "37.7863432"}, {"rating": "6.3", "movieid": "tt0094963", "title": "The Dead Pool", "long": "-122.4341627", "location": "Eber Electronics (2355 Market Street, Castro)", "year": "1988", "lat": "37.7630801"}, {"rating": "6.3", "movieid": "tt0094963", "title": "The Dead Pool", "long": "-122.4100241", "location": "Clementina & Sumner Streets", "year": "1988", "lat": "37.7759045"}, {"rating": "6.3", "movieid": "tt0094963", "title": "The Dead Pool", "long": "-122.4499619", "location": "Carl & Cole Streets (Cole Valley)", "year": "1988", "lat": "37.7657978"}, {"rating": "6.3", "movieid": "tt0094963", "title": "The Dead Pool", "long": "-122.432661", "location": "710 Steiner Street (Hayes Valley)", "year": "1988", "lat": "37.776068"}, {"rating": "6.3", "movieid": "tt0094963", "title": "The Dead Pool", "long": "-122.3918784", "location": "23rd & Iowa Streets (Dogpatch)", "year": "1988", "lat": "37.7551696"}, {"rating": "5.9", "movieid": "tt0095897", "title": "The Presidio", "long": "-122.4066909", "location": "700 Block of Jackson Street (Chinatown)", "year": "1988", "lat": "37.7960495"}, {"rating": "5.9", "movieid": "tt0095897", "title": "The Presidio", "long": "-122.4063727", "location": "900 Block of Grant Avenue (Chinatown)", "year": "1988", "lat": "37.7954105"}, {"rating": "5.9", "movieid": "tt0095897", "title": "The Presidio", "long": "-122.4008843", "location": "Battery Street (The Embarcadero)", "year": "1988", "lat": "37.7976651"}, {"rating": "5.9", "movieid": "tt0095897", "title": "The Presidio", "long": "-122.4176118", "location": "Civic Center Plaza", "year": "1988", "lat": "37.7794978"}, {"rating": "5.9", "movieid": "tt0095897", "title": "The Presidio", "long": "-122.4058222", "location": "Coit Tower", "year": "1988", "lat": "37.8023949"}, {"rating": "5.9", "movieid": "tt0095897", "title": "The Presidio", "long": "-122.392052", "location": "Ferry Building", "year": "1988", "lat": "37.795923"}, {"rating": "5.9", "movieid": "tt0095897", "title": "The Presidio", "long": "-122.4770634", "location": "Fort Point (Presidio, Golden Gate National Recreation Area)", "year": "1988", "lat": "37.8105374"}, {"rating": "5.9", "movieid": "tt0095897", "title": "The Presidio", "long": "-122.4782551", "location": "Golden Gate Bridge", "year": "1988", "lat": "37.8199286"}, {"rating": "5.9", "movieid": "tt0095897", "title": "The Presidio", "long": "-122.4180647", "location": "Hayes & Polk Streets (Civic Center)", "year": "1988", "lat": "37.7775135"}, {"rating": "5.9", "movieid": "tt0095897", "title": "The Presidio", "long": "-122.401451", "location": "Market & 2nd Streets", "year": "1988", "lat": "37.7892494"}, {"rating": "5.9", "movieid": "tt0095897", "title": "The Presidio", "long": "-122.4040675", "location": "Montgomery & Vallejo Streets (Telegraph Hill)", "year": "1988", "lat": "37.799174"}, {"rating": "5.9", "movieid": "tt0095897", "title": "The Presidio", "long": "-122.475726", "location": "Presidio (Golden Gate National Recreation Area)", "year": "1988", "lat": "37.806021"}, {"rating": "5.9", "movieid": "tt0095897", "title": "The Presidio", "long": "-122.4021425", "location": "Sansome Street (The Embarcadero)", "year": "1988", "lat": "37.7979131"}, {"rating": "5.9", "movieid": "tt0095897", "title": "The Presidio", "long": "-122.4070618", "location": "Washington Street & Waverly Place (Chinatown)", "year": "1988", "lat": "37.7950873"}, {"rating": "5.9", "movieid": "tt0095897", "title": "The Presidio", "long": "-122.4007051", "location": "200 Block of Sansome Street (Financial District)", "year": "1988", "lat": "37.7922626"}, {"rating": "7.9", "movieid": "tt0086197", "title": "The Right Stuff", "long": "-122.392636", "location": "American Can Company (Between Illinois & Kentucky, 20th and 22nd Streets)", "year": "1983", "lat": "37.757674"}, {"rating": "7.9", "movieid": "tt0086197", "title": "The Right Stuff", "long": "-122.4496438", "location": "Cow Palace", "year": "1983", "lat": "37.8029679"}, {"rating": "7.9", "movieid": "tt0086197", "title": "The Right Stuff", "long": "-122.356952", "location": "City Hall", "year": "1983", "lat": "37.9137666"}, {"rating": "7.9", "movieid": "tt0086197", "title": "The Right Stuff", "long": "-122.3999445", "location": "Financial District", "year": "1983", "lat": "37.7945742"}, {"rating": "8.4", "movieid": "tt0088275", "title": "The Times of Harvey Milk", "long": "-122.4350043", "location": "The Castro", "year": "1984", "lat": "37.7609082"}, {"rating": "5.8", "movieid": "tt0088414", "title": "The Woman In Red", "long": "-122.4109052", "location": "Brocklebank Apartments (1000 Mason Street)", "year": "1984", "lat": "37.7929097"}, {"rating": "5.8", "movieid": "tt0088414", "title": "The Woman In Red", "long": "-122.4482175", "location": "Palace of Fine Arts (3301 Lyon Street)", "year": "1984", "lat": "37.8018183"}, {"rating": "5.8", "movieid": "tt0088414", "title": "The Woman In Red", "long": "-122.4044855", "location": "Montgomery Street at Union Street", "year": "1984", "lat": "37.8010394"}, {"rating": "5.8", "movieid": "tt0088414", "title": "The Woman In Red", "long": "-122.4245247", "location": "Postcard Row (Alamo Square, Hayes Valley)", "year": "1984", "lat": "37.7759073"}, {"rating": "6.9", "movieid": "tt0096316", "title": "Tucker: The Man and His Dreams", "long": "-122.356952", "location": "City Hall", "year": "1988", "lat": "37.9137666"}]