[{"rating": "7.9", "movieid": "tt0015881", "title": "Greed", "long": "-122.4234239", "location": "Bush and Sutter Streets", "year": "1924", "lat": "37.7873702"}, {"rating": "7.9", "movieid": "tt0015881", "title": "Greed", "long": "-122.4262985", "location": "Hayes Street at Laguna", "year": "1924", "lat": "37.7764647"}, {"rating": "7.9", "movieid": "tt0015881", "title": "Greed", "long": "-122.5139791", "location": "Cliff House (1090 Point Lobos Avenue)", "year": "1924", "lat": "37.7784142"}, {"rating": "6.9", "movieid": "tt0018037", "title": "The Jazz Singer", "long": "-122.4232348", "location": "Coffee Dan's (O'Farrell Street at Powell)", "year": "1927", "lat": "37.7845783"}, {"rating": "7.1", "movieid": "tt0014532", "title": "The Ten Commandments", "long": "-122.410111", "location": "St. Peter & Paul's Church (666 Filbert Street, Washington Square)", "year": "1923", "lat": "37.8009182"}]